{
"type": "FeatureCollection",
"name": "criteData",
"crs": { "type": "name", "properties": { "name": "urn:ogc:def:crs:OGC:1.3:CRS84" } },
"features": [
{ "type": "Feature", "properties": { "location_name": "Boston Public Library\nSouth End Branch", "location_number": 1 }, "geometry": { "type": "Point", "coordinates": [ -71.073, 42.3405 ] } },
{ "type": "Feature", "properties": { "location_name": "401 Shawmut Avenue", "location_number": 2 }, "geometry": { "type": "Point", "coordinates": [ -71.0733, 42.3407 ] } },
{ "type": "Feature", "properties": { "location_name": "2 Dilworth Street", "location_number": 3 }, "geometry": { "type": "Point", "coordinates": [ -71.0829, 42.3403 ] } },
{ "type": "Feature", "properties": { "location_name": "Children's Art Centre", "location_number": 4 }, "geometry": { "type": "Point", "coordinates": [ -71.0758, 42.3398 ] } },
{ "type": "Feature", "properties": { "location_name": "English High School", "location_number": 5 }, "geometry": { "type": "Point", "coordinates": [ -71.0743, 42.3443 ] } },
{ "type": "Feature", "properties": { "location_name": "St. Bartholomew's\nEpiscopal Church", "location_number": 6 }, "geometry": { "type": "Point", "coordinates": [ -71.1006, 42.3682 ] } },
{ "type": "Feature", "properties": { "location_name": "Musem of Fine Arts Boston", "location_number": 7 }, "geometry": { "type": "Point", "coordinates": [ -71.0938, 42.3392 ] } },
{ "type": "Feature", "properties": { "location_name": "Isabella Stewart Gardner Museum", "location_number": 8 }, "geometry": { "type": "Point", "coordinates": [ -71.0989, 42.3386 ] } },
{ "type": "Feature", "properties": { "location_name": "Columbus Avenue Zion\nAME Church", "location_number": 9 }, "geometry": { "type": "Point", "coordinates": [ -71.0821, 42.3399 ] } },
{ "type": "Feature", "properties": { "location_name": "Peoples Baptist Church", "location_number": 10 }, "geometry": { "type": "Point", "coordinates": [ -71.082, 42.3382 ] } },
{ "type": "Feature", "properties": { "location_name": "Lenox Street", "location_number": 11 }, "geometry": { "type": "Point", "coordinates": [ -71.0805, 42.3362 ] } },
{ "type": "Feature", "properties": { "location_name": "The Episcopal Church of Saint\nAugustine and Saint Martin", "location_number": 12 }, "geometry": { "type": "Point", "coordinates": [ -71.0794, 42.3356 ] } },
{ "type": "Feature", "properties": { "location_name": "Madison Park", "location_number": 13 }, "geometry": { "type": "Point", "coordinates": [ -71.0857, 42.3326 ] } },
{ "type": "Feature", "properties": { "location_name": "Charlestown Navy Yard", "location_number": 14 }, "geometry": { "type": "Point", "coordinates": [ -71.0566, 42.3732 ] } },
{ "type": "Feature", "properties": { "location_name": "St. John's Workshop", "location_number": 15 }, "geometry": { "type": "Point", "coordinates": [ -71.0922, 42.3331 ] } },
{ "type": "Feature", "properties": { "location_name": "Harvard University", "location_number": 16 }, "geometry": { "type": "Point", "coordinates": [ -71.1154, 42.3744 ] } },
{ "type": "Feature", "properties": { "location_name": "St. Stephen's Episcopal Church", "location_number": 17 }, "geometry": { "type": "Point", "coordinates": [ -71.0739, 42.3402 ] } },
{ "type": "Feature", "properties": { "location_name": "Crite's Home", "location_number": 18 }, "geometry": { "type": "Point", "coordinates": [ -71.0768, 42.3444 ] } },
{ "type": "Feature", "properties": { "location_name": "University of Massachusetts Boston", "location_number": 19 }, "geometry": { "type": "Point", "coordinates": [ -71.0356, 42.3135 ] } },
{ "type": "Feature", "properties": { "location_name": "Crite Park", "location_number": 20 }, "geometry": { "type": "Point", "coordinates": [ -71.0762, 42.3449 ] } },
{ "type": "Feature", "properties": { "location_name": "Boston Athenaeum", "location_number": 21 }, "geometry": { "type": "Point", "coordinates": [ -71.0622, 42.358 ] } }
]
}
